{"features":[{"properties":{"id":"1011","title":"El asfalto está roto","address":"Avenida de Los Constituyentes 3402-3450"},"type":"Feature","geometry":{"type":"Point","coordinates":[-34.5903,-58.4831]}},{"properties":{"id":"1925","title":"Reclamito test","address":"Quito 3602-3700"},"type":"Feature","geometry":{"type":"Point","coordinates":[-34.6168,-58.4179]}},{"properties":{"id":"2568","title":"Otro intento de foto","address":"Moreno 1801-1899"},"type":"Feature","geometry":{"type":"Point","coordinates":[-34.6123,-58.3925]}},{"properties":{"id":"3529","title":"sdfsdfs","address":"Ancaste 3222-3400"},"type":"Feature","geometry":{"type":"Point","coordinates":[-34.6485,-58.408]}},{"properties":{"id":"17324","title":"sdfdffd","address":"Honduras 5501-5599"},"type":"Feature","geometry":{"type":"Point","coordinates":[-34.5846,-58.4354]}},{"properties":{"id":"18865","title":"Este reclamo no tiene tags","address":"Lugones 2202-2300"},"type":"Feature","geometry":{"type":"Point","coordinates":[-34.573,-58.478]}},{"properties":{"id":"22085","title":"sdfsdfs","address":"Ancaste 3222-3400"},"type":"Feature","geometry":{"type":"Point","coordinates":[-34.6485,-58.408]}},{"properties":{"id":"23901","title":"Test 1 Con foto","address":"Cramer 600-648"},"type":"Feature","geometry":{"type":"Point","coordinates":[-34.6372,-58.5566]}},{"properties":{"id":"25076","title":"Luces rotas!!!","address":"Demaría 4602-4700"},"type":"Feature","geometry":{"type":"Point","coordinates":[-34.5741,-58.4227]}},{"properties":{"id":"30835","title":"La sidewalk no esta","address":"Lascano 3601-3699"},"type":"Feature","geometry":{"type":"Point","coordinates":[-34.6115,-58.4941]}},{"properties":{"id":"42590","title":"sxvzsdszdf","address":"Avenida Díaz Vélez 4902-4956"},"type":"Feature","geometry":{"type":"Point","coordinates":[-34.6089,-58.4368]}},{"properties":{"id":"48898","title":"un reclamo con tags","address":"Gral. Heredia 602-700"},"type":"Feature","geometry":{"type":"Point","coordinates":[-34.6775,-58.3757]}},{"properties":{"id":"67059","title":"Reclamo con foto","address":"Azcuénaga 802-900"},"type":"Feature","geometry":{"type":"Point","coordinates":[-34.5987,-58.4011]}},{"properties":{"id":"73288","title":"Test 2 Sin foto","address":"Avenida Díaz Vélez 399-449"},"type":"Feature","geometry":{"type":"Point","coordinates":[-34.6454,-58.5422]}},{"properties":{"id":"79731","title":"Sin foto","address":"68 Libertad 3101-3199"},"type":"Feature","geometry":{"type":"Point","coordinates":[-34.5668,-58.5412]}},{"properties":{"id":"82621","title":"sfsdf","address":"Bogotá 2401-2499"},"type":"Feature","geometry":{"type":"Point","coordinates":[-34.6253,-58.4653]}},{"properties":{"id":"87130","title":"Test 3 con milisegundos","address":"Eduardo Costa 101-149"},"type":"Feature","geometry":{"type":"Point","coordinates":[-34.6598,-58.5415]}}],"type":"FeatureCollection"}
